[
  {
    "name": "ì²­ì™€ì˜¥ ì„ì§€ë¡œ3ê°€ì§ì˜ì  (Cheongwaok)",
    "category": "ç¾é£Ÿ",
    "note": "åŠ‰åœ¨çŸ³æ¨è–¦æ¹¯é£¯",
    "hours": "08:00 - 22:00",
    "address": "ì„œìš¸ ì¤‘êµ¬ ì„ì§€ë¡œ 110",
    "lat": "37.5660015",
    "lon": "126.9901968"
  },
  {
    "name": "ëŸ°ë˜ë² ì´ê¸€ë®¤ì§€ì—„ ì•ˆêµ­ì  (London Bagel Museum)",
    "category": "æ—©åˆé¤",
    "note": "æ¨å¤§è’œå£å‘³",
    "hours": "08:00 - 18:00",
    "address": "ì„œìš¸ ì¢…ë¡œêµ¬ ë¶ì´Œë¡œ4ê¸¸ 20",
    "lat": "37.5792526",
    "lon": "126.9859384"
  },
  {
    "name": "ì‹ ì„ ì„¤ë†íƒ• ëª…ë™ì  (Sinseon Seolnongtang)",
    "category": "ç¾é£Ÿ",
    "note": "å»ºè­°åŠ é¹½å·´",
    "hours": "24 å°æ™‚ç‡Ÿæ¥­",
    "address": "ì„œìš¸ ì¤‘êµ¬ ëª…ë™ê¸¸ 56",
    "lat": "37.5647104",
    "lon": "126.9867180"
  },
  {
    "name": "ë¬´êµ¬ì˜¥ (Muguok)",
    "category": "ç¾é£Ÿ",
    "note": "12:00 é–‹æ”¾è¨‚ä½",
    "hours": "11:30 - 21:00",
    "address": "ì„œìš¸ ì¢…ë¡œêµ¬ ìœ¨ê³¡ë¡œ1ê¸¸ 7",
    "lat": "37.5775630",
    "lon": "126.9813512"
  },
  {
    "name": "ì¡°ì¡°ì¹¼êµ­ìˆ˜ ì‹œì²­ì  (Jojo Kalguksu)",
    "category": "ç¾é£Ÿ",
    "note": "",
    "hours": "10:00 - 21:30",
    "address": "ì„œìš¸ ì¤‘êµ¬ ì„¸ì¢…ëŒ€ë¡œ11ê¸¸ 27",
    "lat": "37.5620078",
    "lon": "126.9754246"
  },
  {
    "name": "ë¼ì§€ì €ê¸ˆí†µ (Piggy Bank)",
    "category": "ç¾é£Ÿ",
    "note": "å¼˜å¤§ç«™ 8 è™Ÿå‡ºå£",
    "hours": "14:00 - 02:00",
    "address": "ì„œìš¸ ë§ˆí¬êµ¬ ì–´ìš¸ë§ˆë‹¹ë¡œ 146-1",
    "lat": "37.5562643",
    "lon": "126.9262793"
  },
  {
    "name": "êµì´Œí•„ë°© (Kyochon Pilbang)",
    "category": "ç¾é£Ÿ",
    "note": "é€±ä¸€å…¬ä¼‘",
    "hours": "16:00 - 23:30",
    "address": "ì„œìš¸ ìš©ì‚°êµ¬ ë³´ê´‘ë¡œ 127",
    "lat": "37.5256549",
    "lon": "127.0014189"
  },
  {
    "name": "ì¡°ì•¤ë„ìŠ¨ (JO & DAWSON)",
    "category": "å’–å•¡ç”œé»",
    "note": "ç„¦ç³–å¸ƒä¸ååº—",
    "hours": "12:00 - 21:00",
    "address": "ì„œìš¸ ë§ˆí¬êµ¬ ë™êµë¡œ41ê¸¸ 31",
    "lat": "37.5636894",
    "lon": "126.9228307"
  },
  {
    "name": "ë‹¬ë§ˆì§€ ì„ì§€ë¡œì  (Dalmaji)",
    "category": "ç¾é£Ÿ",
    "note": "æœ€å¾Œé»é¤ 01:00",
    "hours": "16:00 - 02:00",
    "address": "ì„œìš¸ ì¤‘êµ¬ ì„ì§€ë¡œ 112-1",
    "lat": "37.5662506",
    "lon": "126.9987609"
  },
  {
    "name": "ìš©ìš©ì„ ìƒ ì„±ìˆ˜ì  (Yongyong Teacher)",
    "category": "ç¾é£Ÿ",
    "note": "æœ€å¾Œé»é¤ 21:00",
    "hours": "16:00 - 22:00",
    "address": "ì„œìš¸ ì„±ë™êµ¬ ì•„ì°¨ì‚°ë¡œ 116",
    "lat": "37.5440368",
    "lon": "127.0565971"
  },
  {
    "name": "ì¢…ì‚¼ìœ¡ (Jongsamyook)",
    "category": "ç¾é£Ÿ",
    "note": "é˜è·¯ä¸‰è¡—ç«™",
    "hours": "14:00 - 23:30",
    "address": "ì„œìš¸ ì¢…ë¡œêµ¬ ëˆí™”ë¬¸ë¡œ11ê¸¸ 8-1",
    "lat": "37.5725657",
    "lon": "126.9900452"
  },
  {
    "name": "ì†ê°€ë„¤ë‹­í•œë§ˆë¦¬ (Son's Chicken)",
    "category": "ç¾é£Ÿ",
    "note": "éš±è—ç‰ˆååº—",
    "hours": "11:00 - 22:00",
    "address": "ì„œìš¸ ì¢…ë¡œêµ¬ ì¢…ë¡œ66ê°€ê¸¸ 10",
    "lat": "37.5735870",
    "lon": "127.0213125"
  },
  {
    "name": "í†µì˜êµ´ì°œ (Tongyeong Oyster)",
    "category": "ç¾é£Ÿ",
    "note": "å­£ç¯€é™å®š",
    "hours": "11:00 - 22:00",
    "address": "ì„œìš¸ ì˜ë“±í¬êµ¬ ì—¬ì˜ë„ë™ 21-3",
    "lat": "37.5267088",
    "lon": "126.9238000"
  },
  {
    "name": "ë¬´êµ¬ì˜¥ ì„±ìˆ˜ì  (Muguok Seongsu)",
    "category": "ç¾é£Ÿ",
    "note": "è–æ°´ç«™åˆ†åº—",
    "hours": "11:30 - 21:00",
    "address": "ì„œìš¸ ì„±ë™êµ¬ ì•„ì°¨ì‚°ë¡œ11ê¸¸ 11",
    "lat": "37.5447374",
    "lon": "127.0593428"
  },
  {
    "name": "í•œë‚¨ë™ê°ìíƒ• (Hannam-dong Gamjatang)",
    "category": "ç¾é£Ÿ",
    "note": "å¿…åƒè€åº—",
    "hours": "24 å°æ™‚ç‡Ÿæ¥­",
    "address": "ì„œìš¸ ìš©ì‚°êµ¬ ìš°ì‚¬ë‹¨ë¡œ 43",
    "lat": "37.5308068",
    "lon": "126.9967969"
  },
  {
    "name": "íŒŒë¡¤ì•¤ë‘ê·¸ (Parole & Langue)",
    "category": "å’–å•¡ç”œé»",
    "note": "å¡”é¡ç”œé»ç†±é–€åº—",
    "hours": "13:00 - 21:00",
    "address": "ì„œìš¸ ë§ˆí¬êµ¬ ì„±ë¯¸ì‚°ë¡œ29ì•ˆê¸¸ 8",
    "lat": "37.5651538",
    "lon": "126.9229985"
  },
  {
    "name": "ë²„í‹°ìƒŒë“œìœ„ì¹˜ (Butty Sandwich)",
    "category": "å’–å•¡ç”œé»",
    "note": "å·§å·´é”ä¸‰æ˜æ²»",
    "hours": "11:00 - 19:00",
    "address": "ì„œìš¸ ë§ˆí¬êµ¬ ë§ì›ë™ 473-9",
    "lat": "37.5558600",
    "lon": "126.9008700"
  },
  {
    "name": "ë§ˆì‚°í• ë§¤ì•„êµ¬ì°œ (Masan Halmae Agujjim)",
    "category": "ç¾é£Ÿ",
    "note": "åœ¨åœ°å£ç¢‘åº—",
    "hours": "11:00 - 22:00",
    "address": "ì„œìš¸ ìš©ì‚°êµ¬ í›„ì•”ë™ 44-8",
    "lat": "37.5501100",
    "lon": "126.9802800"
  },
  {
    "name": "í—¤íŠ¸ë¼ìŠ¤ ì„±ìˆ˜ (hetras)",
    "category": "è³¼ç‰©",
    "note": "æ¨è–¦ No.29, No.7, No.5",
    "hours": "11:00 - 20:00",
    "address": "ì„œìš¸ ì„±ë™êµ¬ ì—°ë¬´ì¥ê¸¸ 89",
    "lat": "37.5411759",
    "lon": "127.0595267"
  },
  {
    "name": "ë‰´ë¯¹ìŠ¤ì»¤í”¼ (newmix coffee)",
    "category": "å’–å•¡ç”œé»",
    "note": "å¿…è²·å³æº¶å’–å•¡ä¼´æ‰‹ç¦®",
    "hours": "11:00 - 20:00",
    "address": "ì„œìš¸ ì„±ë™êµ¬ ì—°ë¬´ì¥ê¸¸ 3",
    "lat": "37.5411759",
    "lon": "127.0595267"
  },
  {
    "name": "ì•„ë” ì„±ìˆ˜ ìŠ¤í˜ì´ìŠ¤ (ADERERROR)",
    "category": "æœé£¾",
    "note": "æ——è‰¦æ¦‚å¿µåº—",
    "hours": "13:00 - 21:00",
    "address": "ì„œìš¸ ì„±ë™êµ¬ ì„±ìˆ˜ì´ë¡œ 82",
    "lat": "37.5364697",
    "lon": "127.0538762"
  },
  {
    "name": "ë¸”ë£¨ì—˜ë¦¬í€íŠ¸ ì„±ìˆ˜ (BLUE ELEPHANT)",
    "category": "æœé£¾",
    "note": "å¹³åƒ¹å¢¨é¡å“ç‰Œ",
    "hours": "11:00 - 20:00",
    "address": "ì„œìš¸ ì„±ë™êµ¬ ì„±ìˆ˜ì´ë¡œ14ê¸¸ 14",
    "lat": "37.5411234",
    "lon": "127.0565635"
  },
  {
    "name": "í“Œ ì•„ì§€íŠ¸ (fwee Agit)",
    "category": "å½©å¦",
    "note": "å¿…è²·å¸ƒä¸å”‡æ³¥",
    "hours": "11:00 - 21:00",
    "address": "ì„œìš¸ ì„±ë™êµ¬ ì—°ë¬´ì¥ê¸¸ 10",
    "lat": "37.5430688",
    "lon": "127.0541356"
  },
  {
    "name": "ë””ì˜¬ ì„±ìˆ˜ (DIOR)",
    "category": "æ™¯é»",
    "note": "ç†±é–€åœ°æ¨™æ‹ç…§",
    "hours": "11:00 - 20:00",
    "address": "ì„œìš¸ ì„±ë™êµ¬ ì—°ë¬´ì¥5ê¸¸ 7",
    "lat": "37.5441865",
    "lon": "127.0528823"
  },
  {
    "name": "ë‰´ë‰´ ì„±ìˆ˜ (NYUNYU)",
    "category": "æœé£¾",
    "note": "é£¾å“è³¼ç‰©è–åœ°",
    "hours": "11:00 - 23:00",
    "address": "ì„œìš¸ ì„±ë™êµ¬ ì—°ë¬´ì¥ê¸¸ 89 2-3F",
    "lat": null,
    "lon": null
  },
  {
    "name": "ëµêµ´ìŠ¤í† ì–´ ì„±ìˆ˜ (Thingool)",
    "category": "é¸ç‰©",
    "note": "ç”Ÿæ´»é¸ç‰©åº—",
    "hours": "11:00 - 21:00",
    "address": "ì„œìš¸ ì„±ë™êµ¬ ì„±ìˆ˜ì´ë¡œ14ê¸¸ 14",
    "lat": "37.5411234",
    "lon": "127.0565635"
  },
  {
    "name": "ì½”ë‹¥ì–´íŒ¨ëŸ´ ë™ëŒ€ë¬¸ (KODAK)",
    "category": "æœé£¾",
    "note": "ä½æ–¼ DunDun 2 æ¨“",
    "hours": "10:30 - 22:00",
    "address": "ì„œìš¸ ì¤‘êµ¬ ì¥ì¶©ë‹¨ë¡œ 211",
    "lat": "37.5693468",
    "lon": "127.0105160"
  },
  {
    "name": "ì´í”¼í‹° ì„±ìˆ˜ (ept)",
    "category": "æœé£¾",
    "note": "éŸ“åœ‹ç†±é–€é‹å‹•é‹",
    "hours": "11:00 - 20:00",
    "address": "ì„œìš¸ ì„±ë™êµ¬ ì—°ë¬´ì¥ê¸¸ 54",
    "lat": "37.5411759",
    "lon": "127.0595267"
  },
  {
    "name": "í•˜ìš°ìŠ¤ ë…¸ì›¨ì–´ (HAUS NOWHERE)",
    "category": "é¸ç‰©",
    "note": "è‡˜è…¸ç‹—åœ°æ¨™/æ–°å“ç‰Œ",
    "hours": "11:00 - 21:00",
    "address": "ì„œìš¸ ì„±ë™êµ¬ ê²½ì•„ê¸¸ 11",
    "lat": null,
    "lon": null
  },
  {
    "name": "ë””ìŠ¤ì´ì¦ˆë„¤ë²„ëŒ“ (thisisneverthat)",
    "category": "æœé£¾",
    "note": "è¡—é ­æ½®æµç¬¬ä¸€ç«™",
    "hours": "12:00 - 21:00",
    "address": "ì„œìš¸ ë§ˆí¬êµ¬ ì”ë‹¤ë¦¬ë¡œ 32",
    "lat": "37.5516170",
    "lon": "126.9197938"
  },
  {
    "name": "í‚¤ìŠ¤ ì„œìš¸ (KITH)",
    "category": "æœé£¾",
    "note": "æ½®æµååº—",
    "hours": "11:00 - 20:00",
    "address": "ì„œìš¸ ì„±ë™êµ¬ ì—°ë¬´ì¥ê¸¸ 70",
    "lat": "37.5411759",
    "lon": "127.0595267"
  },
  {
    "name": "íœ´ë¨¼ë©”ì´ë“œ (HUMAN MADE)",
    "category": "æœé£¾",
    "note": "ç†±é–€æ½®ç‰Œ",
    "hours": "11:00 - 20:00",
    "address": "ì„œìš¸ ì„±ë™êµ¬ ì„±ìˆ˜ì´ë¡œ7ê¸¸ 39",
    "lat": "37.5412470",
    "lon": "127.0542669"
  },
  {
    "name": "ë¬´ì‹ ì‚¬ ì— í”„í‹° (MUSINSA EMPTY)",
    "category": "é¸ç‰©",
    "note": "å¤§å‹é¸å“åº—",
    "hours": "11:00 - 20:00",
    "address": "ì„œìš¸ ì„±ë™êµ¬ ì„±ìˆ˜ì´ë¡œ 97",
    "lat": "37.5364697",
    "lon": "127.0538762"
  },
  {
    "name": "ì²­ìˆ˜ë‹¹ (Cheongsudang)",
    "category": "å’–å•¡ç”œé»",
    "note": "ç›Šå–„æ´ç«¹æ—é€ æ™¯",
    "hours": "11:30 - 22:00",
    "address": "ì„œìš¸ ì¢…ë¡œêµ¬ ëˆí™”ë¬¸ë¡œ11ë‚˜ê¸¸ 31-9",
    "lat": "37.5736272",
    "lon": "126.9905422"
  },
  {
    "name": "YMì»¤í”¼í•˜ìš°ìŠ¤ (YM Coffee House)",
    "category": "å’–å•¡ç”œé»",
    "note": "æ•™å ‚é¢¨æ ¼å°ˆæ¥­æ‰‹æ²–",
    "hours": "12:00 - 22:00",
    "address": "ì„œìš¸ ì€í‰êµ¬ ì—°ì„œë¡œ29ê¸¸ 14-8",
    "lat": "37.6201729",
    "lon": "126.9174055"
  },
  {
    "name": "ì¹´í˜ ë ˆì´ì–´ë“œ ì—°ë‚¨ì  (Cafe Layered)",
    "category": "å’–å•¡ç”œé»",
    "note": "å¸åº·ååº—",
    "hours": "11:00 - 22:00",
    "address": "ì„œìš¸ ë§ˆí¬êµ¬ ì„±ë¯¸ì‚°ë¡œ 161-4",
    "lat": "37.5649847",
    "lon": "126.9241878"
  },
  {
    "name": "ë•¡ìŠ¤ì˜¤íŠ¸ ì—°ë‚¨ (Thanks Oat)",
    "category": "å’–å•¡ç”œé»",
    "note": "å»¶å—æ´æ‰‹å·¥å„ªæ ¼",
    "hours": "10:00 - 19:00",
    "address": "ì„œìš¸ ë§ˆí¬êµ¬ ì„±ë¯¸ì‚°ë¡œ23ê¸¸ 68",
    "lat": "37.5650202",
    "lon": "126.9206249"
  },
  {
    "name": "ì˜¤ëŠ˜ë„ì¶©ë¶„í•´ (today's enough)",
    "category": "å’–å•¡ç”œé»",
    "note": "é€±äºŒå…¬ä¼‘",
    "hours": "12:00 - 20:00",
    "address": "ì„œìš¸ ë§ˆí¬êµ¬ ì—°í¬ë¡œ1ê¸¸ 45",
    "lat": "37.5598873",
    "lon": "126.9254959"
  },
  {
    "name": "ì†Œí˜„ë‹¹ (Sohyeondang)",
    "category": "å’–å•¡ç”œé»",
    "note": "éŸ“å±‹èŒ¶å®¤",
    "hours": "11:00 - 20:00",
    "address": "ì„œìš¸ ì¢…ë¡œêµ¬ ì†Œê²©ë™ 157-1",
    "lat": "37.5796200",
    "lon": "126.9807300"
  },
  {
    "name": "ì•„í‹°ìŠ¤íŠ¸ ë² ì´ì»¤ë¦¬ (artist bakery)",
    "category": "å’–å•¡ç”œé»",
    "note": "é¹½å¯é Œæ’éšŠååº—",
    "hours": "08:00 - 20:00",
    "address": "ì„œìš¸ ì¢…ë¡œêµ¬ ìœ¨ê³¡ë¡œ 45",
    "lat": "37.5763072",
    "lon": "126.9843495"
  },
  {
    "name": "ì´êµ¬ì„±ìˆ˜ (29CM SEONGSU)",
    "category": "é¸ç‰©",
    "note": "ç·šä¸Šé¸å“å¯¦é«”åº—",
    "hours": "11:00 - 20:00",
    "address": "ì„œìš¸ ì„±ë™êµ¬ ì•„ì°¨ì‚°ë¡œ 78",
    "lat": "37.5453108",
    "lon": "127.0526786"
  },
  {
    "name": "ê·¸ë¼ìš´ë“œì‹œì†Œ ì„œì´Œ (Ground Seesaw)",
    "category": "å±•è¦½",
    "note": "è³ªæ„Ÿå±•è¦½ç©ºé–“",
    "hours": "10:00 - 19:00",
    "address": "ì„œìš¸ ì¢…ë¡œêµ¬ ìí•˜ë¬¸ë¡œ6ê¸¸ 18-8",
    "lat": "37.5781385",
    "lon": "126.9729372"
  },
  {
    "name": "ê´‘ì¥ì‹œì¥ 156í˜¸ (Gwangjang Market)",
    "category": "é›œè²¨",
    "note": "è³¼è²·éŸ“åœ‹è£½æ£‰è¢«",
    "hours": "09:00 - 18:00",
    "address": "ì„œìš¸ ì¢…ë¡œêµ¬ ì°½ê²½ê¶ë¡œ 88",
    "lat": "37.5700967",
    "lon": "126.9998283"
  },
  {
    "name": "ì½”ì‚¬ì´ì–´í‹° ì„œìš¸ìˆ² (Cociety)",
    "category": "ğŸ’» Work & Cafe",
    "note": "å‰µæ„å·¥ä½œç©ºé–“ (é€±ä¸€ä¼‘)",
    "hours": "12:00 - 20:00",
    "address": "ì„œìš¸ ì„±ë™êµ¬ ì™•ì‹­ë¦¬ë¡œ 82-20",
    "lat": "37.5559574",
    "lon": "127.0433184"
  },
  {
    "name": "ë¸Œë¼ìš°í„° (Brautor)",
    "category": "ğŸ’» Work & Cafe",
    "note": "è´è¶é¤…ååº—/æ•´æ£Ÿåº§ä½",
    "hours": "08:00 - 22:00",
    "address": "ì„œìš¸ ì„±ë™êµ¬ ì™•ì‹­ë¦¬ë¡œ14ê¸¸ 28-3",
    "lat": "37.5493171",
    "lon": "127.0450501"
  },
  {
    "name": "ë””ë²™í¬ (Debunk)",
    "category": "ğŸ’» Work & Cafe",
    "note": "åœ°ä¸‹å±¤è®€æ›¸æ°›åœ",
    "hours": "10:00 - 23:00",
    "address": "ì„œìš¸ ë§ˆí¬êµ¬ ì„±ì§€1ê¸¸ 30",
    "lat": "37.5480049",
    "lon": "126.9152430"
  },
  {
    "name": "í• ë¦¬ìŠ¤ í™ëŒ€ì—­ì  (Hollys Coffee)",
    "category": "ğŸ’» Work & Cafe",
    "note": "24å°æ™‚/é©åˆç­†é›»",
    "hours": "24 å°æ™‚ç‡Ÿæ¥­",
    "address": "ì„œìš¸ ë§ˆí¬êµ¬ ì–‘í™”ë¡œ 156",
    "lat": "37.5560817",
    "lon": "126.9234301"
  },
  {
    "name": "ì´ë””ì•¼ì»¤í”¼ë© (Ediya Coffee Lab)",
    "category": "ğŸ’» Work & Cafe",
    "note": "æ——è‰¦åº—/å¯¬æ•èˆ’é©",
    "hours": "07:30 - 02:00",
    "address": "ì„œìš¸ ê°•ë‚¨êµ¬ ë…¼í˜„ë¡œ 636",
    "lat": "37.5105088",
    "lon": "127.0326807"
  },
  {
    "name": "í…Œë¼ë¡œì‚¬ í¬ìŠ¤ì½”ì„¼í„°ì  (Terarosa)",
    "category": "ğŸ’» Work & Cafe",
    "note": "é‹¼éµæ›¸æ¶ç‰†/æ±Ÿå—",
    "hours": "07:30 - 21:00",
    "address": "ì„œìš¸ ê°•ë‚¨êµ¬ í…Œí—¤ë€ë¡œ 440",
    "lat": "37.5056932",
    "lon": "127.0558968"
  }
]